District code,District name,Population,Male,Female,Literate,Male_Literate,Female_Literate,Households_with_Internet,Housholds_with_Electric_Lighting,State,Latitude,Longitude,sex_ratio,literacy_rate
4,Kargil,140802,77785,63017,86236,56301,29935,235,15824,Jammu and Kashmir,33.565994894894914,76.63675315315312,81.0,61.0
5,Punch,476835,251899,224936,261724,163333,98391,346,62900,Jammu and Kashmir,33.791241290322574,74.29593161290322,89.0,55.0
7,Kathua,616435,326109,290326,389204,228499,160705,1443,109422,Jammu and Kashmir,32.51781678321678,75.58901398601404,89.0,63.0
10,Srinagar,1236829,651124,585705,748584,431746,316838,16413,165403,Jammu and Kashmir,34.27312898550724,75.11021159420288,90.0,61.0
12,Pulwama,560440,293064,267376,293958,178326,115632,1537,73629,Jammu and Kashmir,33.88414418604652,75.00921860465118,91.0,52.0
16,Doda,409936,213641,196295,219083,138620,80463,596,61831,Jammu and Kashmir,33.359614675767915,76.07163720136518,92.0,53.0
19,Udhampur,554985,296784,258201,322354,197543,124811,1214,73999,Jammu and Kashmir,33.04770670731707,75.15286951219511,87.0,58.0
21,Jammu,1529958,813821,716137,1137135,641916,495219,19905,294739,Jammu and Kashmir,32.713199095022645,74.8477520361991,88.0,74.0
23,Chamba,519080,261320,257760,323842,186064,137778,1615,96082,Himachal Pradesh,32.66741814595661,76.39354063116366,99.0,62.0
24,Kangra,1510075,750591,759484,1152640,606443,546197,8053,330081,Himachal Pradesh,32.14093603238864,76.41205910931173,101.0,76.0
26,Kullu,437903,225452,212451,307672,174550,133122,2623,91322,Himachal Pradesh,31.90911922077925,77.40922649350647,94.0,70.0
27,Mandi,999777,498065,501712,723747,393669,330078,5333,214491,Himachal Pradesh,31.635805940594054,76.96556930693067,101.0,72.0
28,Hamirpur,454768,217070,237698,358091,180555,177536,2521,104120,Himachal Pradesh,31.67668481012659,76.49767088607594,110.0,79.0
28,Hamirpur,454768,217070,237698,358091,180555,177536,2521,104120,Uttar Pradesh,25.738158381502892,79.82619479768789,110.0,79.0
168,Hamirpur,1104285,593537,510748,653299,408125,245174,1196,55929,Himachal Pradesh,31.67668481012659,76.49767088607594,86.0,59.0
168,Hamirpur,1104285,593537,510748,653299,408125,245174,1196,55929,Uttar Pradesh,25.738158381502892,79.82619479768789,86.0,59.0
29,Una,521173,263692,257481,399715,213281,186434,2412,105929,Himachal Pradesh,31.58330388349513,76.18353932038836,98.0,77.0
30,Bilaspur,381956,192764,189192,287620,155599,132021,1574,79146,Chhattisgarh,22.356942982456143,81.99770350877188,98.0,75.0
30,Bilaspur,381956,192764,189192,287620,155599,132021,1574,79146,Himachal Pradesh,31.3780422907489,76.65316079295157,98.0,75.0
406,Bilaspur,2663629,1351574,1312055,1596560,932474,664086,8566,519704,Chhattisgarh,22.356942982456143,81.99770350877188,97.0,60.0
406,Bilaspur,2663629,1351574,1312055,1596560,932474,664086,8566,519704,Himachal Pradesh,31.3780422907489,76.65316079295157,97.0,60.0
31,Solan,580320,308754,271566,428578,244372,184206,5250,119866,Himachal Pradesh,31.03864311926604,76.94442140672783,88.0,74.0
32,Sirmaur,529855,276289,253566,362645,205617,157028,2220,91509,Himachal Pradesh,30.682764453961443,77.43184689507493,92.0,68.0
33,Shimla,814010,425039,388971,612642,342846,269796,9177,172754,Himachal Pradesh,31.155725451807253,77.62573042168668,92.0,75.0
34,Kinnaur,84121,46249,37872,60699,36697,24002,354,17865,Himachal Pradesh,31.60667184065933,78.51613736263741,82.0,72.0
35,Gurdaspur,2298323,1212617,1085706,1634719,907660,727059,14428,411216,Punjab,32.04283371212125,75.3204064393939,90.0,71.0
36,Kapurthala,815168,426311,388857,576567,316254,260313,9732,161206,Punjab,31.336592638036837,75.47641165644177,91.0,71.0
37,Jalandhar,2193590,1145211,1048379,1622537,882581,739956,39082,446200,Punjab,31.250336907216507,75.54400350515463,92.0,74.0
38,Hoshiarpur,1586625,809057,777568,1199699,637927,561772,13747,319930,Punjab,31.55157169811319,75.8469857442349,96.0,76.0
40,Fatehgarh Sahib,600163,320795,279368,426033,238696,187337,5138,113683,Punjab,30.64290947368421,76.36208394736842,87.0,71.0
41,Ludhiana,3498739,1867816,1630923,2560225,1428348,1131877,58589,703624,Punjab,30.76596397379912,75.83110851528383,87.0,73.0
42,Moga,995746,525920,469826,627889,348549,279340,7897,183396,Punjab,30.756540067340065,75.1600845117845,89.0,63.0
43,Firozpur,2029074,1071637,957437,1227511,707070,520441,10042,349662,Punjab,30.63407535211269,74.40245732394365,89.0,60.0
44,Muktsar,901896,475622,426274,524848,300401,224447,4571,166585,Punjab,30.31243303303303,74.5518747747748,90.0,58.0
45,Faridkot,617508,326671,290837,381285,215767,165518,4348,113549,Punjab,30.591187250996025,74.79751553784862,89.0,62.0
46,Bathinda,1388525,743197,645328,844868,488261,356607,11284,255650,Punjab,30.190524611973352,75.05685898004438,87.0,61.0
47,Mansa,769751,408732,361019,423560,244037,179523,2673,140099,Punjab,29.919547714285724,75.4304922857143,88.0,55.0
48,Patiala,1895686,1002522,893164,1266791,711052,555739,24274,352929,Punjab,30.214540380693364,76.27505893949697,89.0,67.0
49,Amritsar,2490656,1318408,1172248,1684770,932981,751789,29961,461231,Punjab,31.548679820627772,74.79883856502238,89.0,68.0
51,Rupnagar,684627,357485,327142,502731,278534,224197,6600,129123,Punjab,30.910937330754347,76.53743500967126,92.0,73.0
53,Sangrur,1655169,878029,777140,1002077,570413,431664,10736,305557,Punjab,30.185045204336895,75.89437014178496,89.0,61.0
55,Chandigarh,1055450,580663,474787,805438,465346,340092,44283,231204,Chandigarh,30.7426,76.75872465753424,82.0,76.0
56,Uttarkashi,330086,168597,161489,215126,128237,86889,602,52621,Uttaranchal,30.968958552036234,78.56880615384617,96.0,65.0
57,Chamoli,391605,193991,197614,280556,155395,125161,899,71524,Uttaranchal,30.58338611464965,79.56281095541402,102.0,72.0
59,Tehri Garhwal,618931,297986,320945,407994,227406,180588,1366,117239,Uttaranchal,30.463700918635173,78.48783792650917,108.0,66.0
62,Pithoragarh,483439,239306,244133,345550,189623,155927,1344,95421,Uttaranchal,30.14720631868129,80.34229230769236,102.0,71.0
63,Bageshwar,259898,124326,135572,179483,97546,81937,435,47083,Uttaranchal,29.98703393393397,79.83954354354357,109.0,69.0
64,Almora,622506,291081,331425,436497,231604,204893,1830,109876,Uttaranchal,29.683532133676103,79.50165064267351,114.0,70.0
65,Champawat,259648,131125,128523,177726,102015,75711,548,37725,Uttaranchal,29.29142393939393,80.07720212121217,98.0,68.0
67,Udham Singh Nagar,1648902,858783,790119,1037839,598525,439314,7883,254802,Uttaranchal,29.02779577677222,79.45629004524895,92.0,63.0
69,Panchkula,561293,299679,261614,405318,229862,175456,18615,103455,Haryana,30.700897142857134,76.97173238095236,87.0,72.0
70,Ambala,1128350,598703,529647,818025,461288,356737,12899,199681,Haryana,30.3503672316384,76.94970310734456,88.0,72.0
72,Kurukshetra,964655,510976,453679,646893,370828,276065,7356,171908,Haryana,30.05652659846548,76.78774680306903,89.0,67.0
73,Kaithal,1074304,571003,503301,646529,385782,260747,3724,187349,Haryana,29.96068539094649,76.37698930041155,88.0,60.0
74,Karnal,1505324,797712,707612,978013,564516,413497,11163,267223,Haryana,29.703200647249204,76.87488025889972,89.0,65.0
75,Panipat,1205437,646857,558580,786599,464136,322463,10024,209965,Haryana,29.34352134146342,76.92895914634147,86.0,65.0
77,Jind,1334152,713006,621146,832758,502049,330709,5263,222462,Haryana,29.45149821958457,76.29598575667653,87.0,62.0
78,Fatehabad,942011,495360,446651,557578,327471,230107,3210,153301,Haryana,29.57298318584072,75.54608716814157,90.0,59.0
79,Sirsa,1295189,682582,612607,782897,456968,325929,6287,215527,Haryana,29.63583446327684,74.90970480225988,90.0,60.0
80,Hisar,1743931,931562,812369,1114311,670200,444111,10132,285004,Haryana,29.23628731117825,75.84324682779452,87.0,64.0
81,Bhiwani,1634445,866672,767773,1069871,643158,426713,5292,266244,Haryana,28.728868064516128,76.02110225806452,89.0,65.0
82,Rohtak,1061204,568479,492725,747582,436025,311557,8482,193120,Haryana,28.892517647058817,76.53123235294117,87.0,70.0
83,Jhajjar,958405,514667,443738,676091,399480,276611,5034,168558,Haryana,28.59651868131869,76.61137142857145,86.0,71.0
84,Mahendragarh,922088,486665,435423,630255,380440,249815,2624,135455,Haryana,28.1352161458333,76.14018072916659,89.0,68.0
85,Rewari,900332,474335,425997,636947,375453,261494,5121,152651,Haryana,28.19164714828897,76.55956007604564,90.0,71.0
86,Gurgaon,1514432,816690,697742,1111116,638666,472450,67087,305751,Haryana,28.043894789579163,77.01935130260523,85.0,73.0
88,Faridabad,1809733,966110,843623,1272739,734940,537799,43437,333171,Haryana,28.14873109756098,77.32718536585368,87.0,70.0
93,East,1709346,907500,801846,1352998,748382,604616,80037,352758,Sikkim,27.29600352941175,88.74908392156858,88.0,79.0
99,Ganganagar,1969168,1043340,925828,1193343,710908,482435,6295,283142,Rajasthan,29.256785412667963,73.56192303262948,89.0,61.0
100,Hanumangarh,1774692,931184,843508,1034136,624281,409855,3360,243163,Rajasthan,29.1813351791531,74.74632573289902,91.0,58.0
101,Bikaner,2363937,1240801,1123136,1278801,782399,496402,7607,220793,Rajasthan,28.12489068322981,73.26943322981371,91.0,54.0
102,Churu,2039547,1051446,988101,1149269,696729,452540,2577,231696,Rajasthan,28.29330375536484,74.65846427038629,94.0,56.0
103,Jhunjhunun,2137045,1095896,1041149,1370360,815834,554526,4828,297559,Rajasthan,28.13517401247401,75.52840893970894,95.0,64.0
104,Alwar,3674179,1939026,1735153,2182476,1359829,822647,9750,485723,Rajasthan,27.55271738035265,76.65359630562563,89.0,59.0
105,Bharatpur,2548462,1355726,1192736,1480869,943910,536959,4179,288723,Rajasthan,27.32411858037578,77.21752077244258,88.0,58.0
106,Dhaulpur,1206516,653647,552869,683098,435721,247377,1330,96086,Rajasthan,26.72397054945053,77.74476219780222,85.0,57.0
107,Karauli,1458248,783639,674609,805849,531904,273945,1059,132079,Rajasthan,26.51901555555556,76.96081818181815,86.0,55.0
108,Sawai Madhopur,1335551,704031,631520,741748,486184,255564,1887,140947,Rajasthan,26.251081180223288,76.4219283891548,90.0,56.0
109,Dausa,1634409,857787,776622,938051,596935,341116,1719,195277,Rajasthan,26.91234817629181,76.57342097264443,91.0,57.0
110,Jaipur,6626178,3468507,3157671,4300965,2554793,1746172,76565,990085,Rajasthan,27.033459290187885,75.77117286012533,91.0,65.0
111,Sikar,2677333,1374990,1302343,1652117,995275,656842,5647,339457,Rajasthan,27.64644058641976,75.29317422839503,95.0,62.0
112,Nagaur,3307743,1696325,1611418,1758624,1102750,655874,4449,347344,Rajasthan,27.07862016048146,74.14215667001012,95.0,53.0
113,Jodhpur,3687165,1923928,1763237,2031532,1265753,765779,19335,408808,Rajasthan,26.678460838536967,73.00450847457628,92.0,55.0
114,Jaisalmer,669919,361708,308211,308653,210415,98238,754,43141,Rajasthan,26.86900838548185,71.18371877346682,85.0,46.0
115,Barmer,2603751,1369022,1234729,1188322,783461,404861,2766,126494,Rajasthan,25.77070908045978,71.50297126436782,90.0,46.0
116,Jalor,1828730,936634,892096,829582,543923,285659,1585,161845,Rajasthan,25.07578093797277,72.18647261724662,95.0,45.0
117,Sirohi,1036346,534231,502115,476806,309900,166906,2146,134089,Rajasthan,24.7976905263158,72.75309131578943,94.0,46.0
118,Pali,2037573,1025422,1012151,1085693,667381,418312,4043,326793,Rajasthan,25.80490393541874,73.55285640766907,99.0,53.0
119,Ajmer,2583052,1324085,1258967,1526673,926268,600405,13499,393498,Rajasthan,26.199300378787903,74.6990419191919,95.0,59.0
120,Tonk,1421326,728136,693190,749659,478329,271330,1908,158264,Rajasthan,26.153935071707927,75.79192216427637,95.0,53.0
121,Bundi,1110906,577160,533746,585044,371705,213339,1392,136969,Rajasthan,25.48580716049379,75.79984074074079,92.0,53.0
122,Bhilwara,2408523,1220736,1187787,1256126,777582,478544,6207,373644,Rajasthan,25.45119767759564,74.63947595628417,97.0,52.0
123,Rajsamand,1156597,581339,575258,619139,383334,235805,1989,193276,Rajasthan,25.24894767441859,73.96570215946844,99.0,54.0
124,Dungarpur,1388552,696532,692020,681591,415820,265771,1477,141275,Rajasthan,23.75104807692308,73.84765641025645,99.0,49.0
125,Banswara,1797485,907754,889731,829343,513854,315489,2324,120603,Rajasthan,23.453642032967014,74.44246868131869,98.0,46.0
126,Chittaurgarh,1544338,783171,761167,821825,514851,306974,4941,268172,Rajasthan,24.631623761665463,74.80010997846382,97.0,53.0
127,Kota,1951014,1021161,929853,1298345,765396,532949,12843,339899,Rajasthan,25.175718080000014,76.18618928000001,91.0,67.0
128,Baran,1222755,633945,588810,693307,432607,260700,1363,161310,Rajasthan,24.98023243243244,76.86210651828291,93.0,57.0
129,Jhalawar,1411129,725143,685986,739792,466815,272977,1750,220428,Rajasthan,24.24725541474657,76.11242891705065,95.0,52.0
130,Udaipur,3068420,1566801,1501619,1582629,973444,609185,14211,357846,Rajasthan,24.44076752136749,73.84029839743584,96.0,52.0
131,Pratapgarh,867848,437744,430104,401515,250122,151393,716,71612,Uttar Pradesh,25.864842731707316,81.93530048780492,98.0,46.0
173,Pratapgarh,3209141,1606085,1603056,1931559,1121381,810178,5149,140538,Uttar Pradesh,25.864842731707316,81.93530048780492,100.0,60.0
132,Saharanpur,3466382,1834106,1632276,2077108,1220114,856994,9699,404499,Uttar Pradesh,30.03381165217392,77.59905147826095,89.0,60.0
133,Muzaffarnagar,4143512,2193434,1950078,2417339,1448528,968811,10077,368153,Uttar Pradesh,29.470507977736563,77.64017847866423,89.0,58.0
134,Bijnor,3682713,1921215,1761498,2135393,1241471,893922,7303,268353,Uttar Pradesh,29.313974259681096,78.45098815489754,92.0,58.0
135,Moradabad,4772006,2503186,2268820,2263848,1357435,906413,11690,281758,Uttar Pradesh,28.851770406189537,78.73580193423597,91.0,47.0
136,Rampur,2335819,1223889,1111930,1043666,630408,413258,3847,131112,Uttar Pradesh,28.83244727272725,79.10977333333337,91.0,45.0
137,Jyotiba Phule Nagar,1840221,963449,876772,983110,600541,382569,2825,89329,Uttar Pradesh,28.870498984771597,78.39009365482241,91.0,53.0
138,Meerut,3443689,1825743,1617946,2141488,1254520,886968,23717,425624,Uttar Pradesh,29.02957625698323,77.80611005586593,89.0,62.0
139,Baghpat,1303048,700070,602978,797970,489858,308112,2989,119121,Uttar Pradesh,29.045793499999988,77.30266300000001,86.0,61.0
140,Ghaziabad,4681645,2488834,2192811,3123264,1811397,1311867,78116,695130,Uttar Pradesh,28.74997308584685,77.67441879350343,88.0,67.0
141,Gautam Buddha Nagar,1648115,890214,757901,1122947,666065,456882,53181,257586,Uttar Pradesh,28.393311038961038,77.52462467532465,85.0,68.0
142,Bulandshahr,3499171,1845260,1653911,2031656,1253314,778342,7865,223922,Uttar Pradesh,28.34875862068968,78.01082758620684,90.0,58.0
143,Aligarh,3673889,1951996,1721893,2092567,1283380,809187,13634,268120,Uttar Pradesh,27.93748576850093,78.00146831119557,88.0,57.0
145,Mathura,2547184,1367125,1180059,1507746,943346,564400,8726,281239,Uttar Pradesh,27.59390432801821,77.62153416856502,86.0,59.0
146,Agra,4418797,2364953,2053844,2680510,1614594,1065916,27183,536402,Uttar Pradesh,26.99512974910393,78.05278291517321,87.0,61.0
147,Firozabad,2498156,1332046,1166110,1521806,912314,609492,5834,196080,Uttar Pradesh,27.20963993055552,78.42660624999998,88.0,61.0
148,Mainpuri,1868529,993377,875152,1203885,712110,491775,2642,79022,Uttar Pradesh,27.17386862302482,79.03501851015807,88.0,64.0
150,Bareilly,4448359,2357665,2090694,2191759,1342697,849062,15164,272830,Uttar Pradesh,28.51101940789474,79.43187072368416,89.0,49.0
151,Pilibhit,2031007,1072002,959005,1061095,654290,406805,2870,83006,Uttar Pradesh,28.52024175035868,79.90103974175037,89.0,52.0
152,Shahjahanpur,3006538,1606403,1400135,1490930,915142,575788,3889,115163,Uttar Pradesh,27.991389350649328,79.8302275324675,87.0,50.0
154,Sitapur,4483992,2375264,2108728,2283733,1397702,886031,3874,102040,Uttar Pradesh,27.501995963091108,80.85288881199547,89.0,51.0
155,Hardoi,4092845,2191442,1901403,2221601,1374587,847014,3845,95508,Uttar Pradesh,27.337409090909137,80.26411767676768,87.0,54.0
156,Unnao,3108367,1630087,1478280,1773584,1053063,720521,3476,99466,Uttar Pradesh,26.63163990895297,80.636773292868,91.0,57.0
157,Lucknow,4589838,2394476,2195362,3127260,1742440,1384820,68506,582769,Uttar Pradesh,26.838233589251463,80.89706026871404,92.0,68.0
158,Rae Bareli,3405559,1752542,1653017,1965843,1165965,799878,5184,247856,Uttar Pradesh,26.253902840059787,81.22260463378181,94.0,58.0
159,Farrukhabad,1885204,1006240,878964,1092677,654827,437850,2624,88081,Uttar Pradesh,27.45063297872342,79.4406284574468,87.0,58.0
160,Kannauj,1656616,881776,774840,1017087,603596,413491,2488,61491,Uttar Pradesh,26.993988617886185,79.64437940379408,88.0,61.0
161,Etawah,1581810,845856,735954,1062003,623583,438420,2964,113098,Uttar Pradesh,26.78817670157068,79.07621806282728,87.0,67.0
162,Auraiya,1379545,740040,639505,930836,546198,384638,2404,65479,Uttar Pradesh,26.66892394014961,79.42637057356607,86.0,67.0
163,Kanpur Dehat,1796184,963255,832929,1170243,692964,477279,2682,49753,Uttar Pradesh,26.43047641196011,79.98710083056478,86.0,65.0
165,Jalaun,1689974,906092,783882,1075196,653430,421766,2217,104176,Uttar Pradesh,26.067954587155988,79.36686911314993,87.0,64.0
166,Jhansi,1998603,1057436,941167,1304513,783705,520808,8517,183340,Uttar Pradesh,25.45581535234902,78.89954580536917,89.0,65.0
167,Lalitpur,1221592,641011,580581,641191,397586,243605,1079,77082,Uttar Pradesh,24.58877161016945,78.60082330508473,91.0,52.0
169,Mahoba,875958,466358,409600,488106,302283,185823,1316,42936,Uttar Pradesh,25.34529670138888,79.67863003472216,88.0,56.0
170,Banda,1799410,965876,833534,1002937,630626,372311,1655,73522,Uttar Pradesh,25.351885902503284,80.52487391304344,86.0,56.0
171,Chitrakoot,991730,527721,464009,531072,330339,200733,827,41046,Uttar Pradesh,25.159924623803,81.07666087551297,88.0,54.0
172,Fatehpur,2632733,1384722,1248011,1512166,911003,601163,3385,75263,Uttar Pradesh,25.8374362030905,80.85416203090509,90.0,57.0
174,Kaushambi,1599596,838485,761111,813424,507279,306145,1503,43753,Uttar Pradesh,25.53587532051282,81.41811282051287,91.0,51.0
175,Allahabad,5954391,3131807,2822584,3665727,2199340,1466387,24122,391542,Uttar Pradesh,25.392038662316445,82.05172446982063,90.0,62.0
176,Bara Banki,3260699,1707073,1553626,1692458,1010518,681940,3159,108116,Uttar Pradesh,26.922777025232424,81.35762350597606,91.0,52.0
177,Faizabad,2470996,1259628,1211368,1450901,838339,612562,4746,127754,Uttar Pradesh,26.60589185185181,82.00783530864202,96.0,59.0
178,Ambedkar Nagar,2397888,1212410,1185478,1486939,846676,640263,2509,99581,Uttar Pradesh,26.39119025974028,82.68282142857147,98.0,62.0
179,Sultanpur,3797117,1914586,1882531,2239902,1300248,939654,5956,233701,Uttar Pradesh,26.2846386419753,82.05710456790123,98.0,59.0
180,Bahraich,3487731,1843884,1643847,1398368,878285,520083,2681,85814,Uttar Pradesh,27.691776300578027,81.46779783237004,89.0,40.0
182,Balrampur,2148665,1114721,1033944,868357,544943,323414,1551,57400,Uttar Pradesh,27.449076537911324,82.47158326180256,93.0,40.0
183,Gonda,3433919,1787146,1646773,1679994,1034181,645813,4313,104084,Uttar Pradesh,27.157215552099505,82.0226888024882,92.0,49.0
185,Basti,2464464,1255272,1209192,1393783,819719,574064,3423,108101,Uttar Pradesh,26.833880454545447,82.69790590909092,96.0,57.0
186,Sant Kabir Nagar,1715183,869656,845527,954949,567098,387851,2031,79525,Uttar Pradesh,26.791596516393444,83.0387764344262,97.0,56.0
188,Gorakhpur,4440895,2277777,2163118,2700328,1593890,1106438,14597,296619,Uttar Pradesh,26.63315886792452,83.3549560377358,95.0,61.0
189,Kushinagar,3564544,1818055,1746489,1954820,1183722,771098,3486,127331,Uttar Pradesh,26.892530675909864,83.92261542461007,96.0,55.0
190,Deoria,3100946,1537436,1563510,1875239,1079288,795951,4469,150001,Uttar Pradesh,26.42218856548857,83.8244070686071,102.0,60.0
191,Azamgarh,4613913,2285004,2328909,2771917,1559414,1212503,6652,183381,Uttar Pradesh,26.008290954773837,83.01220251256285,102.0,60.0
192,Mau,2205968,1114709,1091259,1363044,773082,589962,2656,149908,Uttar Pradesh,26.01082203791469,83.50582654028433,98.0,62.0
193,Ballia,3239774,1672902,1566872,1963590,1160960,802630,4672,119972,Uttar Pradesh,25.86075638297873,84.03651978723408,94.0,61.0
194,Jaunpur,4494204,2220465,2273739,2731677,1565394,1166283,8002,181467,Uttar Pradesh,25.70141280913127,82.54315351934063,102.0,61.0
195,Ghazipur,3620268,1855075,1765193,2197549,1293553,903996,5309,105767,Uttar Pradesh,25.624724775583484,83.5360854578097,95.0,61.0
196,Chandauli,1952756,1017905,934851,1174606,699454,475152,3492,99602,Uttar Pradesh,25.1180859611231,83.25307062634984,92.0,60.0
197,Varanasi,3676841,1921857,1754984,2403903,1389116,1014787,19214,336056,Uttar Pradesh,25.36057088888889,82.82529666666672,91.0,65.0
199,Mirzapur,2496970,1312302,1184668,1428683,865837,562846,4447,145997,Uttar Pradesh,25.10207959183675,82.60126628571429,90.0,57.0
200,Sonbhadra,1862559,971344,891215,985708,601988,383720,5149,95582,Uttar Pradesh,24.46693268858798,83.06816324951639,92.0,53.0
201,Etah,1774480,947339,827141,1055202,647042,408160,2635,69591,Uttar Pradesh,27.591155309734443,78.70021858407083,87.0,59.0
203,Pashchim Champaran,3935042,2061110,1873932,1759481,1091226,668255,3495,57546,Bihar,27.16064352201258,84.30265911949685,91.0,45.0
204,Purba Champaran,5099371,2681209,2418162,2276957,1407603,869354,7719,74979,Bihar,26.68129336734693,85.00382155612242,90.0,45.0
205,Sheohar,656246,346673,309573,283698,171645,112053,478,10004,Bihar,26.458380748663107,85.29539411764709,89.0,43.0
206,Sitamarhi,3423574,1803252,1620322,1436794,885188,551606,3460,66263,Bihar,26.56570069686413,85.61172491289203,90.0,42.0
207,Madhubani,4487379,2329313,2158066,2155338,1340085,815253,5319,113281,Bihar,26.41380538172716,86.16328360450552,93.0,48.0
208,Supaul,2229076,1155283,1073793,1033283,647672,385611,1845,51028,Bihar,26.28157893772896,86.78496465201461,93.0,46.0
209,Araria,2811569,1463333,1348236,1195768,727643,468125,2561,43290,Bihar,26.211528119180603,87.30766554934816,92.0,43.0
210,Kishanganj,1690400,866970,823430,745056,439921,305135,1093,58718,Bihar,26.324336758321294,87.95045007235886,95.0,44.0
211,Purnia,3264619,1699370,1565249,1332326,805261,527065,4170,86058,Bihar,25.81714801901739,87.40447606973065,92.0,41.0
212,Katihar,3071029,1600430,1470599,1280190,762256,517934,2941,60900,Bihar,25.56565356037151,87.70466083591326,92.0,42.0
213,Madhepura,2001762,1047559,954203,834577,517666,316911,1397,23236,Bihar,25.77341929460581,86.8978443983403,91.0,42.0
214,Saharsa,1900661,997174,903487,804996,506374,298622,1668,41342,Bihar,25.821270696721303,86.54670819672135,91.0,42.0
215,Darbhanga,3937385,2059949,1877436,1816634,1125566,691068,6280,127442,Bihar,26.146187719298258,85.97387352472099,91.0,46.0
216,Muzaffarpur,4801062,2527497,2273565,2509232,1487117,1022115,10290,180651,Bihar,26.18664417177915,85.32745092024543,90.0,52.0
217,Gopalganj,2562012,1267666,1294346,1382998,793905,589093,3707,69375,Bihar,26.44874364161851,84.34636127167629,102.0,54.0
218,Siwan,3330464,1675090,1655374,1930175,1115906,814269,3834,52935,Bihar,26.1736372013652,84.33766552901022,99.0,58.0
219,Saran,3951862,2022821,1929041,2157454,1285767,871687,4509,94787,Bihar,25.89656077844312,84.82266287425155,95.0,55.0
220,Vaishali,3495021,1844535,1650486,1926740,1152576,774164,4810,70001,Bihar,25.8134703180212,85.39247597173153,89.0,55.0
221,Samastipur,4261566,2230003,2031563,2142880,1293575,849305,5379,88021,Bihar,25.793205563909765,85.94833323308269,91.0,50.0
222,Begusarai,2970541,1567660,1402881,1548673,918507,630166,4644,120373,Bihar,25.54302613168723,86.12560144032932,89.0,52.0
223,Khagaria,1666886,883786,783100,768028,461153,306875,1580,40641,Bihar,25.53558891454964,86.56593256351037,89.0,46.0
224,Bhagalpur,3037766,1615663,1422103,1573066,937669,635397,6764,174534,Bihar,25.277192885375477,87.04213814229242,88.0,52.0
225,Banka,2034763,1067140,967623,965321,590961,374360,1704,62359,Bihar,24.832355642023337,86.8664916342413,91.0,47.0
226,Munger,1367765,729041,638724,801817,473741,328076,2653,90461,Bihar,25.198537962962963,86.54173672839504,88.0,59.0
227,Lakhisarai,1000912,526345,474567,507270,305182,202088,1186,44491,Bihar,25.183449321266963,86.12825701357468,90.0,51.0
228,Sheikhpura,636342,329743,306599,328676,196431,132245,631,20065,Bihar,25.12472436548223,85.77839390862943,93.0,52.0
229,Nalanda,2877653,1497060,1380593,1519933,919558,600375,4156,101378,Bihar,25.229345508982053,85.48053113772461,92.0,53.0
230,Patna,5838465,3078512,2759953,3459679,2028047,1431632,40692,546859,Bihar,25.40297114503818,85.3198433587787,90.0,59.0
231,Bhojpur,2728407,1430380,1298027,1599151,973486,625665,3661,62153,Bihar,25.50666439393939,84.49407803030304,91.0,59.0
232,Buxar,1706352,887977,818375,989807,593544,396263,1784,46760,Bihar,25.48593018867924,84.08808081760995,92.0,58.0
234,Rohtas,2959918,1543546,1416372,1799832,1061783,738049,4594,114893,Bihar,24.99170460829495,83.9350762672811,92.0,61.0
235,Aurangabad,2540073,1318684,1221389,1466002,868733,597269,2362,44456,Bihar,24.774291867469877,84.45986024096379,93.0,58.0
235,Aurangabad,2540073,1318684,1221389,1466002,868733,597269,2362,44456,Maharashtra,20.0979228832952,75.32072196796334,93.0,58.0
515,Aurangabad,3701282,1924469,1776813,2503837,1430936,1072901,23258,589477,Bihar,24.774291867469877,84.45986024096379,92.0,68.0
515,Aurangabad,3701282,1924469,1776813,2503837,1430936,1072901,23258,589477,Maharashtra,20.0979228832952,75.32072196796334,92.0,68.0
236,Gaya,4391418,2266566,2124852,2297613,1368803,928810,6856,112617,Bihar,24.7266541547278,84.94291217765044,94.0,52.0
237,Nawada,2219146,1144668,1074478,1091012,659474,431538,1841,31162,Bihar,24.825708836206903,85.61594568965519,94.0,49.0
238,Jamui,1760405,916064,844341,858588,534385,324203,1839,32633,Bihar,24.78418380462726,86.26316298200514,92.0,49.0
239,Jehanabad,1125313,585582,539731,618881,374412,244469,1106,27641,Bihar,25.155679045643165,84.9208124481328,92.0,55.0
245,Tawang,49977,29151,20826,26073,17720,8353,96,8635,Arunachal Pradesh,27.680683962264148,91.82504245283016,71.0,52.0
246,West Kameng,83947,46155,37792,48492,29566,18926,202,14188,Arunachal Pradesh,27.46486582278483,92.65015750452083,82.0,58.0
247,East Kameng,78690,38775,39915,38449,21599,16850,57,5318,Arunachal Pradesh,27.371194055944056,93.04741486013997,103.0,49.0
248,Papum Pare,176573,89182,87391,121048,65794,55254,2477,30539,Arunachal Pradesh,27.273529716981127,93.54468183962264,98.0,69.0
249,Upper Subansiri,83448,41758,41690,45278,24807,20471,139,5373,Arunachal Pradesh,28.277196566523585,93.8991435622318,100.0,54.0
250,West Siang,112274,58168,54106,64746,36777,27969,303,14204,Arunachal Pradesh,28.106296920289843,94.53510344202908,93.0,58.0
251,East Siang,99214,50116,49098,62576,34210,28366,450,14231,Arunachal Pradesh,28.15382352941176,95.06499226006191,98.0,63.0
252,Upper Siang,35320,18699,16621,18195,10723,7472,97,6198,Arunachal Pradesh,28.8309244897959,95.00155765306124,89.0,52.0
253,Changlang,148226,76948,71278,73174,44027,29147,170,14593,Arunachal Pradesh,27.36048479338845,96.37552644628106,93.0,49.0
254,Tirap,111975,57604,54371,47974,29313,18661,98,16026,Arunachal Pradesh,26.94406229508198,95.41470327868862,94.0,43.0
255,Lower Subansiri,83030,41843,41187,54057,29470,24587,381,12493,Arunachal Pradesh,27.70849297297297,93.96226108108112,98.0,65.0
256,Kurung Kumey,92076,45318,46758,36606,20258,16348,95,3911,Arunachal Pradesh,28.04853351800553,93.24531994459834,103.0,40.0
258,Lower Dibang Valley,54080,28053,26027,31849,18087,13762,207,5932,Arunachal Pradesh,28.32651730103806,95.76567335640142,93.0,59.0
259,Lohit,145726,76221,69505,83062,48380,34682,312,17157,Arunachal Pradesh,27.946785273972623,96.59670770547945,91.0,57.0
261,Mon,250260,131753,118507,119626,67432,52194,178,14398,Nagaland,26.69207374301676,95.03072988826828,90.0,48.0
262,Mokokchung,194622,101092,93530,159494,83479,76015,537,40154,Nagaland,26.478911764705888,94.522426006192,93.0,82.0
263,Zunheboto,140757,71217,69540,102881,53504,49377,261,28846,Nagaland,26.028178205128206,94.50026666666668,98.0,73.0
264,Wokha,166343,84505,81838,128208,67385,60823,198,25268,Nagaland,26.202611551155112,94.1990815181518,97.0,77.0
265,Dimapur,378811,197394,181417,278037,150142,127895,3303,71413,Nagaland,25.814176811594223,93.75074057971014,92.0,73.0
266,Phek,163418,83743,79675,105893,57926,47967,170,36182,Nagaland,25.63272986577182,94.56814563758392,95.0,65.0
267,Tuensang,196596,101933,94663,117511,63653,53858,155,24998,Nagaland,26.21104453280316,94.85809880715708,93.0,60.0
270,Kohima,267988,138966,129022,197489,107038,90451,1928,50724,Nagaland,25.60311428571428,93.78600657596373,93.0,74.0
272,Senapati,479148,247323,231825,264477,148012,116465,256,22798,Manipur,25.08465586034914,94.03366234413956,94.0,55.0
273,Tamenglong,140651,72371,68280,85006,47403,37603,125,11541,Manipur,24.98312942238265,93.49450740072204,94.0,60.0
274,Churachandpur,274143,138820,135323,195935,104013,91922,837,29894,Manipur,24.30309718875504,93.38671506024085,97.0,71.0
275,Bishnupur,237399,118782,118617,156333,87313,69020,676,34364,Manipur,24.50712111801243,93.8246236024845,100.0,66.0
276,Thoubal,422168,210845,211323,269304,152617,116687,880,49507,Manipur,24.545392553191498,93.97959893617023,100.0,64.0
279,Ukhrul,183998,94718,89280,129829,70148,59681,276,14026,Manipur,25.05900314960629,94.44129566929138,94.0,71.0
280,Chandel,144182,74579,69603,90302,51053,39249,184,18764,Manipur,24.2635812987013,94.09443844155844,93.0,63.0
281,Mamit,86364,44828,41536,60191,32977,27214,90,12158,Mizoram,23.73852942502819,92.4330803833147,93.0,70.0
282,Kolasib,83955,42918,41037,65895,34147,31748,367,14853,Mizoram,24.2020004347826,92.73470391304348,96.0,78.0
283,Aizawl,400309,199270,201039,340595,169547,171048,4019,79804,Mizoram,23.90781335453101,92.85359459459472,101.0,85.0
284,Champhai,125745,63388,62357,100802,51440,49362,186,23948,Mizoram,23.54166580976866,93.24221799485862,98.0,80.0
285,Serchhip,64937,32851,32086,54476,27598,26878,131,12315,Mizoram,23.263864705882344,92.914158496732,98.0,84.0
286,Lunglei,161428,82891,78537,121122,64515,56607,482,26394,Mizoram,23.007717036172675,92.63512555425892,95.0,75.0
287,Lawngtlai,117894,60599,57295,62861,36444,26417,162,9283,Mizoram,22.36102843137253,92.66964156862753,95.0,53.0
288,Saiha,56574,28594,27980,42233,21861,20372,168,7400,Mizoram,22.35744801061008,93.02827931034489,98.0,75.0
289,West Tripura,1725739,879428,846311,1361354,722998,638356,6394,314567,Tripura,23.780166241299337,91.41310788863107,96.0,79.0
290,South Tripura,876001,447544,428457,646810,351082,295728,948,133744,Tripura,23.211874098057383,91.6065807585568,96.0,74.0
291,Dhalai,378230,194544,183686,276217,151643,124574,273,46875,Tripura,23.781360477941163,91.94654283088232,94.0,73.0
292,North Tripura,693947,352860,341087,520402,275646,244756,997,81601,Tripura,24.121739755351683,92.17842538226292,97.0,75.0
293,West Garo Hills,643291,324159,319132,358702,193438,165264,1630,51301,Meghalaya,25.495285185185185,90.03709947089942,98.0,56.0
294,East Garo Hills,317917,161223,156694,192147,102513,89634,288,24550,Meghalaya,25.82728228228228,90.64684924924916,97.0,60.0
295,South Garo Hills,142334,73170,69164,82062,45003,37059,179,10940,Meghalaya,25.240568578553614,90.64560349127176,95.0,58.0
296,West Khasi Hills,383461,193715,189746,230678,117307,113371,149,32873,Meghalaya,25.500889926739926,91.25364542124538,98.0,60.0
298,East Khasi Hills,825922,410749,415173,578030,287270,290760,5032,135941,Meghalaya,25.303763888888884,91.75922519841272,101.0,70.0
299,Jaintia Hills,395124,196285,198839,187527,87371,100156,510,41677,Meghalaya,25.33959557069844,92.37608160136298,101.0,47.0
300,Kokrajhar,887142,452905,434237,489305,275220,214085,1218,41373,Assam,26.497246635730868,90.13997470997688,96.0,55.0
302,Goalpara,1008183,513292,494891,563577,304302,259275,1364,78641,Assam,26.017277777777807,90.59869891598912,96.0,56.0
303,Barpeta,1693622,867004,826618,897058,499038,398020,2078,84804,Assam,26.427872264631056,90.97912010178116,95.0,53.0
305,Nagaon,2823768,1439112,1384656,1710716,921850,788866,5121,195631,Assam,26.26462170626351,92.9306191144708,96.0,61.0
306,Sonitpur,1924110,983904,940206,1108572,620525,488047,4358,133368,Assam,26.73514926829268,92.85197804878044,96.0,58.0
307,Lakhimpur,1042137,529674,512463,683486,375552,307934,1948,60296,Assam,27.14128805970149,94.0775949253732,97.0,66.0
308,Dhemaji,686133,351249,334884,423028,237761,185267,1192,28195,Assam,27.586533438485816,94.71336908517353,95.0,62.0
309,Tinsukia,1327929,680231,647698,798322,453449,344873,5135,161718,Assam,27.53549291139241,95.69055949367085,95.0,60.0
310,Dibrugarh,1326335,676434,649901,884531,491361,393170,8817,136685,Assam,27.30612284482757,95.0998282327587,96.0,67.0
312,Jorhat,1092256,556805,535451,794929,432335,362594,5651,122063,Assam,26.76244824016563,94.30197722567289,96.0,73.0
313,Golaghat,1066888,543161,523727,721764,396475,325289,3073,82345,Assam,26.377219709794485,93.82583397823468,96.0,68.0
314,Karbi Anglong,956313,490167,466146,557214,314253,242961,1923,53918,Assam,26.08966454598031,93.11536570271832,95.0,58.0
316,Cachar,1736617,886284,850333,1174128,639946,534182,5316,140205,Assam,24.815570668693017,92.86849650455927,96.0,68.0
317,Karimganj,1228686,625864,602822,795297,435942,359355,1933,70951,Assam,24.69660712250711,92.3679498575498,96.0,65.0
318,Hailakandi,659296,337890,321406,407366,226836,180530,1211,44143,Assam,24.457496089385486,92.59154664804475,95.0,62.0
319,Bongaigaon,738804,375818,362986,434078,237114,196964,2523,49866,Assam,26.45012521994133,90.6734296187684,97.0,59.0
321,Kamrup,1517542,778461,739081,995319,550219,445100,3109,122191,Assam,26.170939452054807,91.58863273972592,95.0,66.0
323,Nalbari,771639,396006,375633,531771,293184,238587,1631,68313,Assam,26.46323767605632,91.40598521126763,95.0,69.0
325,Darrang,928500,475273,453227,487039,268666,218373,1166,45444,Assam,26.58463215962442,92.04141338028155,95.0,52.0
327,Darjiling,1846823,937259,909564,1315585,717673,597912,10943,297176,West Bengal,26.839619571045585,88.33145067024122,97.0,71.0
328,Jalpaiguri,3872846,1983064,1889782,2498780,1396622,1102158,9322,382500,West Bengal,26.62642031250004,89.04154375000003,95.0,65.0
330,Uttar Dinajpur,3007134,1551066,1456068,1489667,853495,636172,2883,199307,West Bengal,26.044619165196977,88.23595232216337,94.0,50.0
331,Dakshin Dinajpur,1676276,857199,819077,1083685,596474,487211,2518,168069,West Bengal,25.342094363021435,88.69821679819614,96.0,65.0
332,Maldah,3988845,2051541,1937304,2086432,1152019,934413,5357,297716,West Bengal,25.08026802575105,88.17191684549356,94.0,52.0
333,Murshidabad,7103807,3627564,3476243,4055834,2177187,1878647,7951,541169,West Bengal,24.25950655391121,88.16816860465121,96.0,57.0
334,Birbhum,3502404,1790920,1711484,2158447,1201481,956966,5210,333752,West Bengal,24.06389342723,87.65153089201888,96.0,62.0
335,Barddhaman,7717563,3966889,3750674,5247208,2918040,2329168,32323,1049943,West Bengal,23.444453888888884,87.8150581111111,95.0,68.0
336,Nadia,5167600,2653768,2513832,3480555,1878866,1601689,12787,623729,West Bengal,23.56410971055088,88.58293034547152,95.0,67.0
338,Hugli,5519145,2814653,2704492,4078388,2211777,1866611,31725,965258,West Bengal,22.87929264705881,88.00010264705891,96.0,74.0
339,Bankura,3596674,1838095,1758579,2232992,1299337,933655,4273,334670,West Bengal,23.081280892857155,87.12640053571437,96.0,62.0
340,Puruliya,2930115,1496996,1433119,1624905,1002058,622847,3551,189889,West Bengal,23.254192328767108,86.3968532876713,96.0,55.0
341,Haora,4850029,2500819,2349210,3605206,1942824,1662382,30751,796953,West Bengal,22.401674174428507,87.99421176968654,94.0,74.0
342,Kolkata,4496694,2356766,2139928,3588137,1926915,1661222,136618,927602,West Bengal,22.550581481481483,88.3527648148148,91.0,80.0
346,Garhwa,1322784,683575,639209,653476,405161,248315,565,29373,Jharkhand,24.082114689265527,83.68664265536722,94.0,49.0
347,Chatra,1042886,533935,508951,510061,303902,206159,590,27037,Jharkhand,24.11619945750453,84.93295804701627,95.0,49.0
349,Giridih,2445474,1258098,1187376,1253475,783736,469739,1944,125431,Jharkhand,24.30578509874329,86.08710915619386,94.0,51.0
350,Deoghar,1492073,775022,717051,793538,489837,303701,1944,130193,Jharkhand,24.33070100755672,86.75697632241814,93.0,53.0
351,Godda,1313551,677927,635624,604519,376212,228307,874,43230,Jharkhand,24.8189,87.2941735483871,94.0,46.0
352,Sahibganj,1150567,589391,561176,483263,287303,195960,591,34879,Jharkhand,24.93667989690721,87.68264097938142,95.0,42.0
353,Pakur,900422,452661,447761,352881,206989,145892,328,31414,Jharkhand,24.57260428082189,87.69691969178076,99.0,39.0
354,Dhanbad,2684487,1405956,1278531,1722204,1014950,707254,11568,427173,Jharkhand,23.854509090909097,86.40372924901185,91.0,64.0
355,Bokaro,2062330,1072807,989523,1273520,759088,514432,9754,274726,Jharkhand,23.6814965034965,85.98398374125864,92.0,62.0
356,Lohardaga,461790,232629,229161,259707,149568,110139,351,28769,Jharkhand,23.488796043165483,84.6605169064748,99.0,56.0
358,Palamu,1939869,1006302,933567,1024563,621706,402857,2155,68238,Jharkhand,24.196925968109337,84.20310842824594,93.0,53.0
359,Latehar,726978,369666,357312,350682,209706,140976,340,38194,Jharkhand,23.72511185840708,84.48298743362837,97.0,48.0
362,Dumka,1321442,668514,652928,672409,406275,266134,1193,62110,Jharkhand,24.275006125574265,87.27662450229711,98.0,51.0
363,Jamtara,791042,404830,386212,426312,258260,168052,808,49419,Jharkhand,23.97873318077801,86.95325080091534,95.0,54.0
364,Ranchi,2914253,1494937,1419316,1911433,1085244,826189,22538,350908,Jharkhand,23.184235061391547,85.31781937244203,95.0,66.0
366,Gumla,1025213,514390,510823,559720,321795,237925,831,31687,Jharkhand,23.078532948929148,84.55056787479396,99.0,55.0
367,Simdega,599578,300309,299269,343483,191991,151492,423,16865,Jharkhand,22.608760391198054,84.59193691931536,100.0,57.0
371,Jharsuguda,579505,296690,282815,405879,228092,177787,2498,81433,Orissa,21.827058566978184,83.93581682242987,95.0,70.0
372,Sambalpur,1041099,526877,514222,703691,393192,310499,5231,126498,Orissa,21.515752380952385,84.34958483245157,98.0,68.0
374,Sundargarh,2093437,1061147,1032290,1342322,750147,592175,12787,223537,Orissa,22.06354819277107,84.50524819277099,97.0,64.0
376,Mayurbhanj,2519738,1256213,1263525,1369397,794171,575226,2950,140189,Orissa,21.897621545157754,86.4030408052231,101.0,54.0
377,Baleshwar,2320529,1185787,1134742,1621232,902359,718873,7370,296834,Orissa,21.48570932311624,87.08085828011933,96.0,70.0
378,Bhadrak,1506337,760260,746077,1094140,596269,497871,2637,164636,Orissa,20.95262735257214,86.81496204516931,98.0,73.0
379,Kendrapara,1440361,717814,722547,1089265,579970,509295,1628,173107,Orissa,20.606319815982264,86.83763247572003,101.0,76.0
381,Cuttack,2624470,1352760,1271710,2011469,1103033,908436,15046,349587,Orissa,20.407640646029623,85.7776810228802,94.0,77.0
383,Dhenkanal,1192811,612593,580218,829910,464093,365817,1810,117172,Orissa,20.79887159353349,85.53226836027711,95.0,70.0
385,Nayagarh,962789,502636,460153,688362,392333,296029,1163,124984,Orissa,20.192895622119817,85.05614700460825,92.0,71.0
386,Khordha,2251673,1167137,1084536,1749936,957515,792421,35701,349860,Orissa,20.054162322274863,85.52234834123229,93.0,78.0
387,Puri,1698730,865380,833350,1291939,704857,587082,3416,201605,Orissa,19.83509174603177,85.86698989898981,96.0,76.0
388,Ganjam,3529031,1779218,1749813,2210050,1262652,947398,9049,405298,Orissa,19.2632617564534,84.80297710437702,98.0,63.0
389,Gajapati,577817,282882,294935,262537,153663,108874,635,63112,Orissa,19.121080882352945,84.14015091911759,104.0,45.0
390,Kandhamal,733110,359945,373165,399786,233900,165886,768,28736,Orissa,20.092878624813142,84.02216352765326,104.0,55.0
394,Nuapada,610382,301962,308420,299383,180903,118480,757,43976,Orissa,20.471309512195116,82.59152536585364,102.0,49.0
395,Kalahandi,1576869,787101,789768,802036,484177,317859,1953,91171,Orissa,19.784253092783523,83.1124043814433,100.0,51.0
396,Rayagada,967911,471960,495951,407735,241959,165776,1553,61543,Orissa,19.292840020060204,83.45860120361095,105.0,42.0
398,Koraput,1379647,678809,700838,568090,340843,227247,3988,85766,Orissa,18.82627794779476,82.81278469846964,103.0,41.0
399,Malkangiri,613192,303624,309568,244706,147001,97705,448,24604,Orissa,18.25227930367506,81.98293636363628,102.0,40.0
400,Koriya,658917,334737,324180,397823,229923,167900,1667,80023,Chhattisgarh,23.50412776859501,82.12515636363635,97.0,60.0
401,Surguja,2359886,1193129,1166757,1187941,694686,493255,2737,253131,Chhattisgarh,23.32719278728607,83.23582493887531,98.0,50.0
402,Jashpur,851669,424747,426922,495415,280656,214759,567,76783,Chhattisgarh,22.77286167664669,83.8703962075848,101.0,58.0
403,Raigarh,1493984,750278,743706,951639,542756,408883,3342,297308,Chhattisgarh,22.008265068493166,83.27797698630134,99.0,64.0
403,Raigarh,1493984,750278,743706,951639,542756,408883,3342,297308,Maharashtra,18.453257637845976,73.0090609418579,99.0,64.0
520,Raigarh,2634200,1344345,1289855,1939994,1059692,880302,38570,547206,Chhattisgarh,22.008265068493166,83.27797698630134,96.0,74.0
520,Raigarh,2634200,1344345,1289855,1939994,1059692,880302,38570,547206,Maharashtra,18.453257637845976,73.0090609418579,96.0,74.0
404,Korba,1206640,612915,593725,748759,433391,315368,4544,202380,Chhattisgarh,22.491712499999995,82.57604326923074,97.0,62.0
409,Durg,3343872,1682101,1661771,2303378,1284612,1018766,16141,614109,Chhattisgarh,21.194463849287164,81.33181639511197,99.0,69.0
410,Raipur,4063872,2048186,2015686,2629749,1493158,1136591,20261,728556,Chhattisgarh,20.88603153846152,82.20032759615388,98.0,65.0
411,Mahasamund,1032754,511967,520787,637963,364089,273874,961,212487,Chhattisgarh,21.223727037773354,82.65925427435384,102.0,62.0
412,Dhamtari,799781,397897,401884,546833,303924,242909,1016,148926,Chhattisgarh,20.554912627291245,81.7569195519348,101.0,68.0
414,Bastar,1413199,698487,714712,650863,382335,268528,1782,157646,Chhattisgarh,19.393866751269048,81.52895126903546,102.0,46.0
417,Bijapur,255230,128663,126567,86919,54076,32843,117,12516,Karnataka,16.84015316666667,75.95909166666665,98.0,34.0
557,Bijapur,2177331,1111022,1066309,1248268,730566,517702,4987,326594,Karnataka,16.84015316666667,75.95909166666665,96.0,57.0
418,Sheopur,687861,361784,326077,328025,208201,119824,273,74770,Madhya Pradesh,25.78014810996563,77.16911116838484,90.0,48.0
419,Morena,1965970,1068417,897553,1179685,747652,432033,1781,131486,Madhya Pradesh,26.37313504531724,77.88447341389724,84.0,60.0
420,Bhind,1703005,926843,776162,1094917,676513,418404,1166,107819,Madhya Pradesh,26.35951126187245,78.7618324287653,84.0,64.0
421,Gwalior,2032036,1090327,941709,1357210,803114,554096,15779,306859,Madhya Pradesh,26.04074441964285,78.12782433035713,86.0,67.0
422,Datia,786754,420157,366597,491445,303815,187630,616,97696,Madhya Pradesh,25.90226439560441,78.63916571428574,87.0,62.0
423,Shivpuri,1726050,919795,806255,900846,573242,327604,1852,148128,Madhya Pradesh,25.37802451874367,77.74861600810549,88.0,52.0
424,Tikamgarh,1445166,760355,684811,747940,459353,288587,1090,132725,Madhya Pradesh,25.14099852104666,78.89357064846428,90.0,52.0
425,Chhatarpur,1762375,936121,826254,943033,572010,371023,1880,176056,Madhya Pradesh,24.813637376460004,79.56449299191374,88.0,54.0
426,Panna,1016520,533480,483040,552559,332140,220419,653,76097,Madhya Pradesh,24.451325840092657,80.21133001158752,91.0,54.0
427,Sagar,2378458,1256257,1122201,1545719,908607,637112,4546,366494,Madhya Pradesh,23.800318709677374,78.71940357771273,89.0,65.0
428,Damoh,1264219,661873,602346,747715,445737,301978,1432,187731,Madhya Pradesh,23.76624407960196,79.47049303482588,91.0,59.0
429,Satna,2228935,1157495,1071440,1371781,801051,570730,3754,294702,Madhya Pradesh,24.62777621776502,80.75547048710598,93.0,62.0
430,Rewa,2365106,1225100,1140006,1441757,845572,596185,3406,251132,Madhya Pradesh,24.861184625158856,81.57572465057183,93.0,61.0
431,Umaria,644758,330674,314084,356672,210907,145765,839,67975,Madhya Pradesh,23.59601063063061,80.90879477477475,95.0,55.0
432,Neemuch,826067,422653,403414,508834,307889,200945,1945,145258,Madhya Pradesh,24.70311893333336,75.06608186666664,95.0,62.0
433,Mandsaur,1340411,682851,657560,834591,502898,331693,2324,239885,Madhya Pradesh,24.19278764044944,75.43588667736759,96.0,62.0
434,Ratlam,1455069,738241,716828,825880,485090,340790,3644,213825,Madhya Pradesh,23.503562290502792,75.14895782122909,97.0,57.0
435,Ujjain,1986864,1016289,970575,1240990,730817,510173,7501,323379,Madhya Pradesh,23.319288862745065,75.80383717647058,96.0,62.0
436,Shajapur,1512681,780520,732161,894612,543509,351103,1382,232735,Madhya Pradesh,23.566620317220547,76.33555181268885,94.0,59.0
437,Dewas,1563715,805359,758356,925369,550716,374653,3518,270457,Madhya Pradesh,22.7851110021322,76.46088805970157,94.0,59.0
438,Dhar,2185793,1112725,1073068,1077338,638479,438859,2388,349639,Madhya Pradesh,22.572681718963157,75.1105620736698,96.0,49.0
439,Indore,3276697,1699627,1577070,2309130,1289631,1019499,48691,593576,Madhya Pradesh,22.680265752128648,75.9133801324502,93.0,70.0
441,Barwani,1385881,699340,686541,549926,313642,236284,1158,181139,Madhya Pradesh,21.702135714285724,74.91004719710673,98.0,40.0
442,Rajgarh,1545814,790212,755602,804245,488797,315448,1611,231130,Madhya Pradesh,23.785499026425583,76.66431223922116,96.0,52.0
443,Vidisha,1458875,769568,689307,862918,512344,350574,1926,181510,Madhya Pradesh,23.82838307984792,77.9013507604563,90.0,59.0
444,Bhopal,2371061,1236130,1134931,1660690,920314,740376,40788,452912,Madhya Pradesh,23.480726143790854,77.39246623093679,92.0,70.0
445,Sehore,1311332,683743,627589,780362,469208,311154,1566,212138,Madhya Pradesh,22.9297199679658,77.06780202883085,92.0,60.0
446,Raisen,1331597,700358,631239,820220,479093,341127,1141,194373,Madhya Pradesh,23.292518206521724,78.16305495923909,90.0,62.0
447,Betul,1575362,799236,776126,939769,529783,409986,2109,230974,Madhya Pradesh,21.964626315789477,77.7873428189117,97.0,60.0
448,Harda,570465,294838,275627,352550,203807,148743,986,95066,Madhya Pradesh,22.227659781121783,77.07022571819435,93.0,62.0
449,Hoshangabad,1241350,648725,592625,810644,469199,341445,2871,198076,Madhya Pradesh,22.595268801996703,78.02168094841929,91.0,65.0
450,Katni,1292042,662013,630029,790773,460583,330190,2179,172416,Madhya Pradesh,23.724416229116937,80.33819665871127,95.0,61.0
451,Jabalpur,2463289,1277278,1186011,1756468,980307,776161,20443,452023,Madhya Pradesh,23.18525572327043,79.98328754716981,93.0,71.0
453,Dindori,704524,351913,352611,378714,222759,155955,554,62372,Madhya Pradesh,22.83738437047757,81.04332966714911,100.0,54.0
454,Mandla,1054905,525272,529633,604962,348033,256929,912,143803,Madhya Pradesh,22.70348712446353,80.38600543633753,101.0,57.0
455,Chhindwara,2090922,1064468,1026454,1294198,731294,562904,3588,344875,Madhya Pradesh,22.227966971713823,78.76413136439254,96.0,62.0
456,Seoni,1379131,695879,683252,864194,485341,378853,1182,228695,Madhya Pradesh,22.33230487804874,79.66053863928111,98.0,63.0
457,Balaghat,1701698,842178,859520,1147623,626468,521155,1712,277927,Madhya Pradesh,21.80020720640569,80.42170053380796,102.0,67.0
458,Guna,1241519,649362,592157,653980,400537,253443,2482,144248,Madhya Pradesh,24.49043927178156,77.2235895968791,91.0,53.0
459,Ashoknagar,845071,443837,401234,469109,290304,178805,619,84720,Madhya Pradesh,24.63098846153845,77.82974493927134,90.0,56.0
460,Shahdol,1066063,540021,526042,604194,348761,255433,1733,113184,Madhya Pradesh,23.44859864559819,81.4596831828442,97.0,57.0
461,Anuppur,749237,379114,370123,436595,254120,182475,1290,81338,Madhya Pradesh,23.18184220430107,81.86560000000007,98.0,58.0
462,Sidhi,1127033,575912,551121,600785,353030,247755,837,102228,Madhya Pradesh,24.17547189952905,82.1053783359498,96.0,53.0
464,Jhabua,1025048,515023,510025,352081,214582,137499,744,125411,Madhya Pradesh,22.419578015397768,74.40921616766468,99.0,34.0
467,Burhanpur,757847,388504,369343,408679,233073,175606,986,112420,Madhya Pradesh,21.364567254408065,76.24460478589425,95.0,54.0
468,Kachchh,2092371,1096737,995634,1252319,739239,513080,9631,403294,Gujarat,23.48057203301311,68.82192301497916,91.0,60.0
469,Banas Kantha,3120506,1610379,1510127,1704923,1048402,656521,3424,396873,Gujarat,24.258538965517253,71.93205252873561,94.0,55.0
470,Patan,1343734,694397,649337,837913,494631,343282,2231,223424,Gujarat,23.80634198473284,71.75162977099237,94.0,62.0
471,Mahesana,2035064,1056520,978544,1502645,847499,655146,7759,385609,Gujarat,23.529355452865065,72.45545194085031,93.0,74.0
472,Sabar Kantha,2428589,1244231,1184358,1578734,918625,660109,5262,438606,Gujarat,23.71803594548552,73.13638790459964,95.0,65.0
473,Gandhinagar,1391753,723864,667889,1030494,582686,447808,12107,262539,Gujarat,23.193679790026252,72.67221679790026,92.0,74.0
474,Ahmadabad,7214225,3788051,3426174,5435760,3025463,2410297,126341,1456046,Gujarat,22.605425564971743,72.23898135593227,90.0,75.0
475,Surendranagar,1756268,909917,846351,1093626,643221,450405,2975,302068,Gujarat,22.82672007299272,71.48358740875906,93.0,62.0
476,Rajkot,3804558,1974445,1830113,2725056,1514075,1210981,21785,747352,Gujarat,22.40603377715488,70.83679439383323,93.0,72.0
477,Jamnagar,2160119,1114192,1045927,1396534,795140,601394,11573,386538,Gujarat,22.410600414263328,69.62062005768233,94.0,65.0
478,Porbandar,585449,300209,285240,393678,221621,172057,1653,117040,Gujarat,21.55092351651571,69.71896987722886,95.0,67.0
479,Junagadh,2743082,1404356,1338726,1842818,1046981,795837,6628,498326,Daman and Diu,20.72568199498111,70.83985639899612,95.0,67.0
479,Junagadh,2743082,1404356,1338726,1842818,1046981,795837,6628,498326,Gujarat,20.929523011609785,70.54733890140345,95.0,67.0
480,Amreli,1514190,771049,743141,995459,558180,437279,2538,273331,Gujarat,21.04832649310872,71.43457637825426,96.0,66.0
481,Bhavnagar,2880365,1490201,1390164,1887255,1087371,799884,7297,500757,Gujarat,21.70219390341736,72.16272632761141,93.0,66.0
482,Anand,2092745,1087224,1005521,1551253,874481,676772,9902,378310,Gujarat,22.282718206229863,72.57782051557454,92.0,74.0
483,Kheda,2299885,1185727,1114158,1660243,942480,717763,5710,372226,Gujarat,22.88765312500002,73.018803515625,94.0,72.0
484,Panch Mahals,2390776,1226961,1163815,1440805,858054,582751,3456,398937,Gujarat,22.80435606837605,73.61984598290586,95.0,60.0
486,Vadodara,4165626,2153736,2011890,2893080,1614087,1278993,53606,798277,Gujarat,22.26133739279589,73.49433010291594,93.0,69.0
487,Narmada,590297,301086,289211,370336,211767,158569,576,101940,Gujarat,21.70666386292833,73.68403208722742,96.0,63.0
488,Bharuch,1551019,805707,745312,1118276,623047,495229,10257,309091,Gujarat,21.75787276237761,72.67326346710801,93.0,72.0
489,The Dangs,228291,113821,114470,140968,77314,63654,137,29794,Gujarat,20.801633877551023,73.6883518367347,101.0,62.0
490,Navsari,1329672,678165,651507,1001909,539471,462438,6726,267679,Gujarat,20.866973318871995,72.86184869848157,96.0,75.0
491,Valsad,1705678,887222,818456,1170657,655528,515129,11020,329218,Gujarat,20.44238231644259,72.9148584798345,92.0,69.0
492,Surat,6081322,3402224,2679098,4571410,2687468,1883942,55694,1252452,Gujarat,21.25761372772093,72.93488716344339,79.0,75.0
495,Daman,191173,124659,66514,150348,104316,46032,1316,49249,Daman and Diu,20.431616666666677,72.8392366071429,53.0,79.0
497,Nandurbar,1648295,833170,815125,906509,512099,394410,2579,186202,Maharashtra,21.523175625248147,74.32638757443429,98.0,55.0
498,Dhule,2050862,1054031,996831,1293916,723388,570528,6065,315332,Maharashtra,21.274018690400517,74.58719071837263,95.0,63.0
499,Jalgaon,4229917,2197365,2032552,2891882,1629223,1262659,14297,720791,Maharashtra,20.8828943415638,75.55140421810695,92.0,68.0
500,Buldana,2586258,1337560,1248698,1879874,1048892,830982,4767,423036,Maharashtra,20.56680611183355,76.39017880364096,93.0,73.0
501,Akola,1813906,932334,881572,1411281,758977,652304,6163,314490,Maharashtra,20.746310479041902,77.12122320359276,95.0,78.0
502,Washim,1197160,620302,576858,869917,487703,382214,1875,196022,Maharashtra,20.282282394366213,77.25502394366208,93.0,73.0
503,Amravati,2888445,1480768,1407677,2251875,1207104,1044771,9438,512492,Maharashtra,21.16520991810736,77.67583503184723,95.0,78.0
504,Wardha,1300774,668385,632389,1019458,552617,466841,4313,266155,Maharashtra,20.80743024390242,78.57259105691062,95.0,78.0
505,Nagpur,4653570,2384975,2268595,3673808,1959220,1714588,57964,917626,Maharashtra,21.196556862745105,79.02166176470584,95.0,79.0
506,Bhandara,1200334,605520,594814,899860,488709,411151,2932,227025,Maharashtra,21.211792649727748,80.10950199637024,98.0,75.0
507,Gondiya,1322507,661554,660953,1004243,542837,461406,2866,239981,Maharashtra,21.225008411214997,80.17522698598128,100.0,76.0
509,Chandrapur,2204307,1123834,1080473,1578615,872565,706050,8239,418666,Maharashtra,20.095609090909075,79.31556380471388,96.0,72.0
510,Yavatmal,2772348,1419965,1352383,2022574,1115980,906594,6094,446516,Maharashtra,20.04258346738159,78.05326371760479,95.0,73.0
511,Nanded,3361292,1730075,1631217,2189425,1255222,934203,7548,488748,Maharashtra,19.209316983017,77.6829048951049,94.0,65.0
512,Hingoli,1177345,606294,571051,790743,450551,340192,1221,159114,Maharashtra,19.59525302245251,77.09239412780653,94.0,67.0
513,Parbhani,1836086,942870,893216,1157814,666291,491523,3982,272486,Maharashtra,19.31032425249168,76.70163338870431,95.0,63.0
514,Jalna,1959046,1011473,947573,1195523,699428,496095,3791,288895,Maharashtra,19.984612534818933,75.98473607242339,94.0,61.0
516,Nashik,6107187,3157186,2950001,4345366,2397538,1947828,45039,904710,Maharashtra,20.266912871287143,74.03824168316828,93.0,71.0
517,Thane,11060148,5865078,5195070,8227161,4591396,3635765,256170,2231800,Maharashtra,19.698767747440264,72.79882742564581,89.0,74.0
521,Pune,9429408,4924105,4505303,7171723,3940210,3231513,235018,1925019,Maharashtra,18.51696171428573,74.12922881632647,91.0,76.0
523,Bid,2585049,1349106,1235943,1718507,987185,731322,5614,402052,Maharashtra,18.952353340080982,75.69319706477731,92.0,66.0
524,Latur,2454196,1273140,1181056,1650672,932432,718240,6217,381722,Maharashtra,18.348687268993856,76.75812607802874,93.0,67.0
525,Osmanabad,1657576,861535,796041,1137810,644304,493506,3209,240042,Maharashtra,18.19459456066944,75.99495575313809,92.0,69.0
526,Solapur,4317756,2227852,2089904,2910676,1651266,1259410,15145,595560,Maharashtra,17.837357937584812,75.42394823609216,94.0,67.0
527,Satara,3003741,1510842,1492899,2225694,1201034,1024660,14093,562653,Maharashtra,17.6737908974359,74.18052064102558,99.0,74.0
528,Ratnagiri,1615069,761121,853948,1199392,619012,580380,7752,367352,Maharashtra,17.210195070127703,73.25725893866404,112.0,74.0
529,Sindhudurg,849651,417332,432319,666067,348289,317778,3517,194228,Maharashtra,16.170948049777163,73.51329008172343,104.0,78.0
530,Kolhapur,3876001,1980658,1895343,2825845,1559760,1266085,22269,770005,Maharashtra,16.44881301587301,74.12897150793648,96.0,73.0
531,Sangli,2822143,1435728,1386415,2049467,1121550,927917,13212,485126,Maharashtra,17.154930181086502,74.70713822937628,97.0,73.0
532,Adilabad,2741239,1369597,1371642,1483347,856350,626997,5512,566108,Andhra Pradesh,19.284513950073435,78.81321233480176,100.0,54.0
533,Nizamabad,2551335,1250641,1300694,1389810,790214,599596,5261,545913,Andhra Pradesh,18.429485849056604,78.07523490566035,104.0,54.0
534,Karimnagar,3776269,1880800,1895469,2206829,1257238,949591,8831,926768,Andhra Pradesh,18.515483193277312,79.43765428571413,101.0,58.0
535,Medak,3033288,1523030,1510258,1637137,953406,683731,8635,604719,Andhra Pradesh,17.889304978038055,78.13778901903379,99.0,54.0
536,Hyderabad,3943323,2018575,1924748,2892155,1542688,1349467,149034,869721,Andhra Pradesh,17.38971555555556,78.46668888888888,95.0,73.0
538,Mahbubnagar,4053028,2050386,2002642,1940646,1158386,782260,6153,757821,Andhra Pradesh,16.639546224256293,77.98933089244859,98.0,48.0
539,Nalgonda,3488809,1759772,1729037,2001019,1160757,840262,7715,789225,Andhra Pradesh,17.113250515463907,79.16984453608244,98.0,57.0
540,Warangal,3512576,1759281,1753295,2065023,1179790,885233,12952,828077,Andhra Pradesh,18.01752608695651,79.87422028985509,100.0,59.0
541,Khammam,2797370,1390988,1406382,1630234,901640,728594,8628,668519,Andhra Pradesh,17.683921325051784,80.67008643892335,101.0,58.0
542,Srikakulam,2703114,1341738,1361376,1495381,857824,637557,3988,615432,Andhra Pradesh,18.570900998697432,84.25874814010675,101.0,55.0
543,Vizianagaram,2344474,1161477,1182997,1238388,707503,530885,4453,527736,Andhra Pradesh,18.28329696032972,83.45982854198873,102.0,53.0
545,East Godavari,5154296,2569688,2584608,3288577,1716933,1571644,22411,1297273,Andhra Pradesh,16.782718320784902,82.2432074720511,101.0,64.0
546,West Godavari,3936966,1964918,1972048,2652389,1379223,1273166,12050,1017568,Andhra Pradesh,16.63297943925236,81.45912990654196,100.0,67.0
547,Krishna,4517398,2267375,2250023,3009718,1598959,1410759,30438,1163932,Andhra Pradesh,16.143872753151673,81.14805061000413,99.0,67.0
548,Guntur,4887813,2440521,2447292,2960441,1634726,1325715,19383,1186028,Andhra Pradesh,15.884925767634847,80.58657614107885,100.0,61.0
549,Prakasam,3397448,1714764,1682684,1904435,1107686,796749,6151,763746,Andhra Pradesh,15.489039001601704,80.11665790176184,98.0,56.0
552,Kurnool,4053463,2039227,2014236,2127161,1246369,880792,10081,816721,Andhra Pradesh,15.43759715142429,77.90086836581717,99.0,52.0
553,Anantapur,4081148,2064495,2016653,2310960,1338474,972486,8606,897970,Andhra Pradesh,14.312065561843148,77.4601584478577,98.0,57.0
554,Chittoor,4174064,2090204,2083860,2667878,1484794,1183084,13763,944555,Andhra Pradesh,13.33109263067696,78.92763898886037,100.0,64.0
555,Belgaum,4779661,2423063,2356598,3052032,1725548,1326484,17560,808827,Karnataka,16.16107219152853,74.72329042357275,97.0,64.0
556,Bagalkot,1889752,950111,939641,1113412,641388,472024,3745,301389,Karnataka,16.15860676328503,75.64526070853468,99.0,59.0
558,Bidar,1703300,870665,832635,1042673,597198,445475,3971,271439,Karnataka,17.950361730769224,77.19459961538459,96.0,61.0
559,Raichur,1928812,964511,964301,979769,577213,402556,5200,314547,Karnataka,16.050795353982295,76.87368606194688,100.0,51.0
560,Koppal,1389920,699926,689994,809085,468785,340300,2135,223166,Karnataka,15.651253271028034,76.1617048598131,99.0,58.0
561,Gadag,1064570,537147,527423,700177,397178,302999,3373,198064,Karnataka,15.507128256880746,75.64861302752298,98.0,66.0
562,Dharwad,1847023,937206,909817,1301664,711776,589888,15013,347962,Karnataka,15.343831376975173,75.13831264108359,97.0,70.0
564,Haveri,1597668,819128,778540,1085443,603793,481650,2456,295937,Karnataka,14.737582809224318,75.3961230607966,95.0,68.0
565,Bellary,2452595,1236954,1215641,1421621,813440,608181,9626,440374,Karnataka,15.074377548209377,76.47228471074374,98.0,58.0
566,Chitradurga,1659456,840843,818613,1087392,607188,480204,5711,307257,Karnataka,14.29102220394736,76.57821957236843,97.0,66.0
567,Davanagere,1945497,986400,959097,1308540,720637,587903,7320,372671,Karnataka,14.330414586709884,75.91723841166937,97.0,67.0
568,Shimoga,1752753,877415,875338,1263016,674938,588078,8791,363835,Karnataka,14.063845885634592,75.17882078103197,100.0,72.0
569,Udupi,1177361,562131,615230,926429,465704,460725,9070,224814,Karnataka,13.450404228534568,74.72009990316337,109.0,79.0
570,Chikmagalur,1137961,566622,571339,818345,438257,380088,4510,238505,Karnataka,13.425288289676422,75.67626502311249,101.0,72.0
571,Tumkur,2678980,1350594,1328386,1813391,1006024,807367,7971,562769,Karnataka,13.592467760074973,77.02297966260545,98.0,68.0
573,Mandya,1805769,905085,900684,1149649,638668,510981,3367,391033,Karnataka,12.574901806239744,76.81570098522172,100.0,64.0
574,Hassan,1776421,883667,892754,1225256,668836,556420,4851,400702,Karnataka,12.945098749999998,76.11049549999997,101.0,69.0
576,Kodagu,554519,274608,279911,412877,215302,197575,3308,113931,Karnataka,12.39684468085106,75.79336595744688,102.0,74.0
577,Mysore,3001127,1511600,1489527,1962180,1063766,898414,28397,640868,Karnataka,12.248100259403367,76.52881802853437,99.0,65.0
579,Gulbarga,2566326,1301755,1264571,1427368,828359,599009,9752,404767,Karnataka,17.070459515951594,76.87503850385033,97.0,56.0
581,Kolar,1536401,776396,760005,1016219,564110,452109,5051,309494,Karnataka,13.312799881235172,78.01376947743476,98.0,66.0
583,Bangalore Rural,990923,509172,481751,688749,385311,303438,3729,214253,Karnataka,12.936827087794448,77.47369314775169,95.0,70.0
585,North Goa,818008,416677,401331,663060,351738,311322,23440,173951,Goa,15.548723418714054,73.80667997909038,96.0,81.0
586,South Goa,640537,322463,318074,502427,264085,238342,17624,138810,Goa,15.195278658183785,73.941792596877,99.0,78.0
588,Kasaragod,1307375,628613,678762,1037492,516476,521016,10378,237670,Kerala,12.33310309912974,75.07768497134369,108.0,79.0
589,Kannur,2523003,1181446,1341557,2138434,1012956,1125478,32653,511167,Kerala,11.941523076923056,75.35209891725934,114.0,85.0
590,Wayanad,817420,401684,415736,645585,328136,317449,4712,149864,Kerala,11.715277464788736,76.07587007042254,103.0,79.0
591,Kozhikode,3086293,1470942,1615351,2615443,1266939,1348504,36791,641660,Kerala,11.392924270557026,75.71158720159153,110.0,85.0
592,Malappuram,4112920,1960328,2152592,3311315,1597404,1713911,27909,730119,Kerala,10.97329875666072,75.93910775606876,110.0,81.0
593,Palakkad,2809934,1359478,1450456,2239492,1122600,1116892,27162,587583,Kerala,10.784926903553291,76.49980490693744,107.0,80.0
594,Thrissur,3121200,1480763,1640437,2678548,1282261,1396287,56148,721625,Kerala,10.458932647907687,76.12321940836945,111.0,86.0
595,Ernakulam,3282388,1619557,1662831,2855676,1425723,1429953,88737,771287,Kerala,10.004879301987431,76.26957729035381,103.0,87.0
596,Idukki,1108974,552808,556166,923010,471881,451129,8250,244844,Kerala,9.80480963855423,77.04586641566264,101.0,83.0
597,Kottayam,1974551,968289,1006262,1749798,861592,888206,37849,464039,Kerala,9.643701174068417,76.46059673302705,104.0,89.0
598,Alappuzha,2127789,1013142,1114647,1852797,890552,962245,28842,507913,Kerala,9.542602965599087,76.38010796263319,110.0,87.0
600,Kollam,2635375,1246968,1388407,2240273,1074345,1165928,31542,630767,Kerala,8.929388820570157,76.6360775852431,111.0,85.0
601,Thiruvananthapuram,3301427,1581678,1719749,2785408,1354857,1430551,71621,783872,Kerala,8.537101759082221,76.88711502868073,109.0,84.0
602,Thiruvallur,3728104,1876062,1852042,2791721,1495711,1296010,75634,909400,Tamil Nadu,13.275858101752885,80.19724702864492,99.0,75.0
603,Chennai,4646732,2335844,2310888,3776276,1968079,1808197,217368,1096334,Tamil Nadu,13.058098905608748,80.28139151846806,99.0,81.0
604,Kancheepuram,3998252,2012958,1985294,3013382,1611461,1401921,100322,961161,Tamil Nadu,12.496424756511884,80.08820360135913,99.0,75.0
605,Vellore,3936331,1961688,1974643,2773928,1504355,1269573,20623,865913,Tamil Nadu,12.784882632293078,79.02643283582084,101.0,70.0
606,Tiruvannamalai,2464875,1235889,1228986,1626813,909803,717010,6445,549077,Tamil Nadu,12.419318947368414,79.23265631578953,99.0,66.0
608,Salem,3482056,1781571,1700485,2285562,1285107,1000455,20660,835377,Tamil Nadu,11.629324202127655,78.2478257978723,95.0,66.0
609,Namakkal,1726601,869280,857321,1176131,653312,522819,8960,441044,Tamil Nadu,11.33766638477801,78.14624841437633,99.0,68.0
610,Erode,2251744,1129868,1121876,1492662,828300,664362,18604,595211,Tamil Nadu,11.267012155963302,77.42034334862392,99.0,66.0
612,Dindigul,2159775,1080938,1078837,1481834,816180,665654,9155,500057,Tamil Nadu,10.377801390820574,77.78011279554937,100.0,69.0
613,Karur,1064493,528184,536309,727044,401726,325318,4915,264949,Tamil Nadu,10.79532776617955,78.08749686847604,102.0,68.0
615,Perambalur,565223,282157,283066,375823,208011,167812,1507,135751,Tamil Nadu,11.260137758112096,78.86034011799416,100.0,66.0
616,Ariyalur,754894,374703,380191,480604,269582,211022,1749,177502,Tamil Nadu,11.190514836795256,79.22249643916912,101.0,64.0
617,Cuddalore,2605914,1311697,1294217,1815281,1000322,814959,15396,598412,Tamil Nadu,11.57587300613498,79.63002365371497,99.0,70.0
618,Nagapattinam,1616450,798127,818323,1213008,640916,572092,5585,381940,Tamil Nadu,10.789468161718286,79.79437299431483,103.0,75.0
619,Thiruvarur,1264277,626693,637584,946471,503085,443386,4416,303114,Tamil Nadu,10.368927409395978,79.60322893959727,102.0,75.0
620,Thanjavur,2405890,1182416,1223474,1790998,944264,846734,13495,555582,Tamil Nadu,10.387692255892237,79.3194869107745,103.0,74.0
621,Pudukkottai,1618345,803188,815157,1110545,608776,501769,4494,354493,Tamil Nadu,10.130514816433578,79.05444484265728,101.0,69.0
622,Sivaganga,1339101,668672,670429,959744,526304,433440,5773,314270,Tamil Nadu,9.960306580645158,78.56535729032255,100.0,72.0
623,Madurai,3038252,1526475,1511777,2273430,1223810,1049620,34097,754141,Tamil Nadu,9.904313833333331,78.01366033333332,99.0,75.0
624,Theni,1245899,625683,620216,870080,479403,390677,4667,312310,Tamil Nadu,9.924066666666668,77.43458833333332,99.0,70.0
625,Virudhunagar,1942288,967709,974579,1398788,760375,638413,10219,505950,Tamil Nadu,9.468872195892564,77.87641469194315,101.0,72.0
626,Ramanathapuram,1353445,682658,670787,978946,536487,442459,5172,291400,Tamil Nadu,9.31286995153476,78.99185362412462,98.0,72.0
629,Kanniyakumari,1870374,926345,944029,1548738,780541,768197,15673,465692,Tamil Nadu,8.183466300191206,77.32053064053538,102.0,83.0
630,Dharmapuri,1506843,774303,732540,917709,527599,390110,3651,337972,Tamil Nadu,12.300141200000006,78.11509813333339,95.0,61.0
632,Coimbatore,3458045,1729297,1728748,2635907,1394790,1241117,63273,896325,Tamil Nadu,10.871376995940452,77.07619012178621,100.0,76.0
634,Yanam,55626,27301,28325,39274,19919,19355,207,12859,Puducherry,16.707695652173904,82.26187304347832,104.0,71.0
636,Mahe,41816,19143,22673,36470,16610,19860,574,7150,Puducherry,12.006420793787758,75.28275021570326,118.0,87.0
637,Karaikal,200222,97809,102413,154916,79903,75013,1868,47880,Puducherry,10.876161726078813,79.82369793621002,105.0,77.0
